[{"name":"Web Standards Days","website":"https://wsd.events/2017/11/04/","date":"7 November, 2017","location":{"city":"Kiev","country":"Ukraine"}},{"name":"FFConf","website":"http://ffconf.org/","date":"9-10 November, 2017","location":{"city":"Brighton","country":"England"}},{"name":"HalfStack 2017","website":"http://halfstackconf.com/","date":"17 November, 2017","location":{"city":"London","country":"England"}},{"name":"dotCSS 2017","website":"https://www.dotcss.io/","date":"30 November – 1 December, 2017","location":{"city":"Paris","country":"France"}},{"name":"Frontend Conference Munich","website":"https://frontconf.com/","date":"8-9 December, 2017","location":{"city":"Munich","country":"Germany"}},{"name":"React Native EU 2017","website":"http://react-native.eu/","date":"Fall 2017","location":{"city":"Wroclaw","country":"Poland"}},{"name":"Script'18","website":"https://scriptconf.org","date":"19 January, 2018","location":{"city":"Linz","country":"Austria"}},{"name":"The Rolling Scopes Conference","website":"https://2018.conf.rollingscopes.com/","date":"10 – 11 February 2018","location":{"city":"Minsk","country":"Belarus"}},{"name":"VueJS Conference","website":"https://www.vuejs.amsterdam/","date":"16 February 2018","location":{"city":"Amsterdam","country":"The Netherlands"}},{"name":"Frontend NE: The Conference","website":"https://2018.frontendne.co.uk","date":"April 5th 2018","location":{"city":"Newcastle-Upon-Tyne","country":"England"}},{"name":"Bulgaria Web Summit 2018","website":"https://bulgariawebsummit.com","date":"April 14th 2018","location":{"city":"Sofia","country":"Bulgaria"}},{"name":"ReactEurope 2018","website":"https://www.react-europe.org","date":"17-18 May 2018","location":{"city":"Paris","country":"France"}},{"name":"Frontend United","website":"https://frontendunited.org/","date":"31 May - 3 June 2018","location":{"city":"Utrecht","country":"The Netherlands"}},{"name":"JS Conf EU","website":"https://2018.jsconf.eu/","date":"2-3 June 2018","location":{"city":"Berlin","country":"Germany"}}]